,
		{
			"type": "Feature",
			"properties": {
				"restaurant": "bar",
				"name": "Pepe Verde",
				"adres": "Wojskowa 3",
				"telefon": "25 633 07 00"
			},
			"geometry": {
				"type": "Point",
				"coordinates": [
					22.27124170000002,
					52.1694624
				]
			}
		},
		{
			"type": "Feature",
			"properties": {
				"restaurant": "bar",
				"name": "Piec Sztuk",
				"adres": "11 Listopada 23",
				"telefon": "791 891 603"
			},
			"geometry": {
				"type": "Point",
				"coordinates": [
					22.274362099999962,
					52.172036
				]
			}
		},
		{
			"type": "Feature",
			"properties": {
				"restaurant": "bar",
				"name": "Piwiarnia Miejska Siedlce",
				"adres": "Wojskowa 1",
				"telefon": "666 660 088"
			},
			"geometry": {
				"type": "Point",
				"coordinates": [
					22.271366599999965,
					52.1685326
				]
			}
        },
        ,
		{
			"type": "Feature",
			"properties": {
				"restaurant": "bar",
				"name": "Pub Pracownia Rannych Pantofli",
				"adres": "3 Maja 38",
				"telefon": "502 799 294"
			},
			"geometry": {
				"type": "Point",
				"coordinates": [
					22.27763099999993,
					52.1641427
				]
			}
        }
        


        ////////////////////


        {
			"type": "Feature",
			"properties": {
				"restaurant": "restauracja",
				"name": "Wolczykij",
				"adres": "Biskupa Świrskiego 43B",
				"telefon": "792 596 254"
			},
			"geometry": {
				"type": "Point",
				"coordinates": [
					22.276779499999975,
					52.16919859999999
				]
			}
		},
		{
			"type": "Feature",
			"properties": {
				"restaurant": "restauracja",
				"name": "Brofaktura",
				"adres": "Armii Krajowej 5",
				"telefon": "25 633 63 33"
			},
			"geometry": {
				"type": "Point",
				"coordinates": [
					22.27172900000005,
					52.1667772
				]
			}
		},
		{
			"type": "Feature",
			"properties": {
				"restaurant": "restauracja",
				"name": "Meat and Fit",
				"adres": "Piłsudskiego 11",
				"telefon": "517 212 288,"
			},
			"geometry": {
				"type": "Point",
				"coordinates": [
					22.278839699999935,
					52.1680883
				]
			}
		},
		{
			"type": "Feature",
			"properties": {
				"restaurant": "restauracja",
				"name": "Kochanówka",
				"adres": "Kochanowskiego 9",
				"telefon": "505 172 964,"
			},
			"geometry": {
				"type": "Point",
				"coordinates": [
					22.275202499999978,
					52.1686093
				]
			}
		},
		{
			"type": "Feature",
			"properties": {
				"restaurant": "restauracja",
				"name": "Zaścianek Polski",
				"adres": "Asłanowicza 17",
				"telefon": "25 631-02-29,"
			},
			"geometry": {
				"type": "Point",
				"coordinates": [
					22.277788200000032,
					52.1707291
				]
			}
		},
		{
			"type": "Feature",
			"properties": {
				"restaurant": "restauracja",
				"name": "Bollywood Hollywood",
				"adres": "Wiszniewskiego 4",
				"telefon": "25 6 332 332,"
			},
			"geometry": {
				"type": "Point",
				"coordinates": [
					22.288443400000006,
					52.1688415
				]
			}
		},
		{
			"type": "Feature",
			"properties": {
				"restaurant": "restauracja",
				"name": "Omega",
				"adres": "Starowiejska 24",
				"telefon": "533 016 016,"
			},
			"geometry": {
				"type": "Point",
				"coordinates": [
					22.28715539999996,
					52.1679476
				]
			}
		},
		{
			"type": "Feature",
			"properties": {
				"restaurant": "restauracja",
				"name": "Bufet Gastronomiczny PKP",
				"adres": "pl. Zdanowskiego 1",
				"telefon": "25 632 66 42,"
			},
			"geometry": {
				"type": "Point",
				"coordinates": [
					22.272387600000002,
					52.1620627
				]
			}
		},
		{
			"type": "Feature",
			"properties": {
				"restaurant": "restauracja",
				"name": "Patio",
				"adres": "Plac Tysiąlecia 21",
				"telefon": "728 949 649,"
			},
			"geometry": {
				"type": "Point",
				"coordinates": [
					22.275838399999998,
					52.165542
				]
			}
		},
		{
			"type": "Feature",
			"properties": {
				"restaurant": "restauracja",
				"name": "Kamienica",
				"adres": "Wojska Polskiego 60",
				"telefon": "666 455 688,"
			},
			"geometry": {
				"type": "Point",
				"coordinates": [
					22.26765720000003,
					52.1660692
				]
			}
		},
		{
			"type": "Feature",
			"properties": {
				"restaurant": "bar",
				"name": "Pub Pracownia Rannych Pantofli",
				"adres": "3 Maja 38",
				"telefon": "502 799 294"
			},
			"geometry": {
				"type": "Point",
				"coordinates": [
					22.27763099999993,
					52.1641427
				]
			}
		}